# 
# Header Description:
# 
# Version: v2.0.0.1 Platform: 7.0 Manufacturer: samsung Model: SM-G950F
# 
# Raw,ElapsedRealtimeMillis,TimeNanos,LeapSecond,TimeUncertaintyNanos,FullBiasNanos,BiasNanos,BiasUncertaintyNanos,DriftNanosPerSecond,DriftUncertaintyNanosPerSecond,HardwareClockDiscontinuityCount,Svid,TimeOffsetNanos,State,ReceivedSvTimeNanos,ReceivedSvTimeUncertaintyNanos,Cn0DbHz,PseudorangeRateMetersPerSecond,PseudorangeRateUncertaintyMetersPerSecond,AccumulatedDeltaRangeState,AccumulatedDeltaRangeMeters,AccumulatedDeltaRangeUncertaintyMeters,CarrierFrequencyHz,CarrierCycles,CarrierPhase,CarrierPhaseUncertainty,MultipathIndicator,SnrInDb,ConstellationType,AgcDb,CarrierFrequencyHz
# 
# Fix,Provider,Latitude,Longitude,Altitude,Speed,Accuracy,(UTC)TimeInMs
# 
# Nav,Svid,Type,Status,MessageId,Sub-messageId,Data(Bytes)
# 
Raw,5530968,2123000000,,,-1191199253693999999,0.0,5.968969500122643E9,,,0,2,0.0,17,19123676,15,35.62989807128906,446.5701240515798,0.08057168442293733,4,8.474382443931574,3.4028234663852886E38,,,,,0,,1,,
Raw,5530969,2123000000,,,-1191199253693999999,0.0,5.968969500122643E9,,,0,3,0.0,17,14166631,39,27.510974884033203,890.327422966332,0.19896549295536636,4,16.89538740722486,3.4028234663852886E38,,,,,0,,1,,
Raw,5530969,2123000000,,,-1191199253693999999,0.0,5.968969500122643E9,,,0,5,0.0,17,16294234,26,31.154491424560547,-444.89766382754897,0.13205398388274375,4,-8.442644936378741,3.4028234663852886E38,,,,,0,,1,,
Raw,5530970,2123000000,,,-1191199253693999999,0.0,5.968969500122643E9,,,0,6,0.0,17,19975255,15,35.443382263183594,672.496150427181,0.0823990566011325,4,13.392772426654858,3.4028234663852886E38,,,,,0,,1,,
Raw,5530970,2123000000,,,-1191199253693999999,0.0,5.968969500122643E9,,,0,7,0.0,17,10522288,8,40.56140899658203,400.69026378059425,0.045610477161056456,4,7.603738807459948,3.4028234663852886E38,,,,,0,,1,,
Raw,5530971,2123000000,,,-1191199253693999999,0.0,5.968969500122643E9,,,0,9,0.0,17,26952278,8,40.910614013671875,373.91484735907875,0.04684307053254985,4,7.09563233230385,3.4028234663852886E38,,,,,0,,1,,
Raw,5530971,2123000000,,,-1191199253693999999,0.0,5.968969500122643E9,,,0,16,0.0,17,13742547,10,39.395057678222656,681.6014831819889,0.052472583706501846,4,12.934478360854882,3.4028234663852886E38,,,,,0,,1,,
Raw,5530972,2123000000,,,-1191199253693999999,0.0,5.968969500122643E9,,,0,23,0.0,17,19507587,6,44.52123260498047,628.277912159052,0.03350894388755836,4,11.922578695476602,3.4028234663852886E38,,,,,0,,1,,
Raw,5530972,2123000000,,,-1191199253693999999,0.0,5.968969500122643E9,,,0,28,0.0,17,17952568,15,35.51426696777344,-538.7557389702599,0.08139468921047593,4,-10.223752493212313,3.4028234663852886E38,,,,,0,,1,,
Raw,5530972,2123000000,,,-1191199253693999999,0.0,5.968969500122643E9,,,0,30,0.0,17,28710150,7,41.63380432128906,-14.646886697146513,0.0438043524322585,4,-0.27794810446744744,3.4028234663852886E38,,,,,0,,1,,
Raw,5532013,3123000000,,,-1191199253693999999,0.0,5.968969500122643E9,,,0,2,0.0,17,19122198,18,34.117950439453125,446.67898341771365,0.09523709253878127,4,456.1606081497818,3.4028234663852886E38,,,,,0,,1,,
Raw,5532014,3123000000,,,-1191199253693999999,0.0,5.968969500122643E9,,,0,3,0.0,17,14163548,46,26.098541259765625,890.8730149303492,0.23364841978884865,4,906.6270865648844,3.4028234663852886E38,,,,,0,,1,,
Raw,5532018,3123000000,,,-1191199253693999999,0.0,5.968969500122643E9,,,0,5,0.0,17,16295737,18,34.223331451416016,-445.24281686475547,0.09362168727891179,4,-453.8282990168392,3.4028234663852886E38,,,,,0,,1,,
Raw,5532019,3123000000,,,-1191199253693999999,0.0,5.968969500122643E9,,,0,6,0.0,17,19973023,15,35.51074981689453,672.8131172728431,0.08178978276531385,4,686.1016099616897,3.4028234663852886E38,,,,,0,,1,,
Raw,5532020,3123000000,,,-1191199253693999999,0.0,5.968969500122643E9,,,0,7,0.0,17,10520931,8,41.004302978515625,400.8321490470987,0.04343692175015254,4,408.2375060611401,3.4028234663852886E38,,,,,0,,1,,
Raw,5532021,3123000000,,,-1191199253693999999,0.0,5.968969500122643E9,,,0,9,0.0,17,6951025,8,40.976356506347656,373.7900374032922,0.042928667949347354,4,381.2942684591078,3.4028234663852886E38,,,,,0,,1,,
Raw,5532022,3123000000,,,-1191199253693999999,0.0,5.968969500122643E9,,,0,16,0.0,17,13740269,11,38.177734375,681.6077543539891,0.05999457603644753,4,694.688869179723,3.4028234663852886E38,,,,,0,,1,,
Raw,5532023,3123000000,,,-1191199253693999999,0.0,5.968969500122643E9,,,0,23,0.0,17,19505491,6,43.96885681152344,628.4844518455802,0.033508567366279635,4,640.4798158056851,3.4028234663852886E38,,,,,0,,1,,
Raw,5532024,3123000000,,,-1191199253693999999,0.0,5.968969500122643E9,,,0,28,0.0,17,17954381,18,34.31194305419922,-538.6504241796044,0.09299954931277471,4,-549.0504603071512,3.4028234663852886E38,,,,,0,,1,,
Raw,5532025,3123000000,,,-1191199253693999999,0.0,5.968969500122643E9,,,0,30,0.0,17,8710193,8,40.787391662597656,-14.187665003341998,0.044161773056943326,4,-14.852108045625254,3.4028234663852886E38,,,,,0,,1,,
Raw,5533023,4123000000,,,-1191199253693999999,0.0,5.968969500122643E9,,,0,2,0.0,17,19120684,16,35.375030517578125,447.0966639224007,0.08286793168477602,1,903.2126488288254,0.0015474414685741067,,,,,0,,1,,
Raw,5533024,4123000000,,,-1191199253693999999,0.0,5.968969500122643E9,,,0,3,0.0,17,14160570,46,26.145368576049805,890.6000144536015,0.23240532542611214,1,1797.16926931592,0.004222027957439423,,,,,0,,1,,
Raw,5533025,4123000000,,,-1191199253693999999,0.0,5.968969500122643E9,,,0,5,0.0,17,16297251,13,36.70152282714844,-446.4913935770121,0.07111071567941751,4,-899.6398709535885,3.4028234663852886E38,,,,,0,,1,,
Raw,5533026,4123000000,,,-1191199253693999999,0.0,5.968969500122643E9,,,0,6,0.0,17,19970754,12,37.817562103271484,672.8058236271472,0.06355068845963643,1,1358.9024999778885,0.0011681205360218883,,,,,0,,1,,
Raw,5533027,4123000000,,,-1191199253693999999,0.0,5.968969500122643E9,,,0,7,0.0,17,10519592,6,43.676658630371094,401.10160494836805,0.03243407132728951,1,809.2936500563416,6.272080354392529E-4,,,,,0,,1,,
Raw,5533028,4123000000,,,-1191199253693999999,0.0,5.968969500122643E9,,,0,9,0.0,17,6949790,6,43.44611740112305,374.00946025838607,0.03261345979397924,1,755.2736745641541,6.440783035941422E-4,,,,,0,,1,,
Raw,5533028,4123000000,,,-1191199253693999999,0.0,5.968969500122643E9,,,0,16,0.0,17,13738007,9,39.8892707824707,681.8328348968657,0.04970624234737692,1,1376.4929922567267,9.202422806993127E-4,,,,,0,,1,,
Raw,5533029,4123000000,,,-1191199253693999999,0.0,5.968969500122643E9,,,0,23,0.0,17,19503409,6,45.46784210205078,628.634959973585,0.03350819292522897,1,1269.090205606702,5.103314178995788E-4,,,,,0,,1,,
Raw,5533030,4123000000,,,-1191199253693999999,0.0,5.968969500122643E9,,,0,28,0.0,17,17956206,14,36.48543167114258,-538.8037952339571,0.07312660644525448,1,-1087.8612722480416,0.001361739938147366,,,,,0,,1,,
Raw,5533031,4123000000,,,-1191199253693999999,0.0,5.968969500122643E9,,,0,30,0.0,17,8710234,6,43.5194206237793,-14.147996219179745,0.032666536812911096,1,-29.042453071770705,6.38665456790477E-4,,,,,0,,1,,
Raw,5534016,5123000000,,,-1191199253693999999,0.0,5.968969500122643E9,,,0,2,0.0,51,19119217,15,35.48185348510742,447.1893341216862,0.08189679801759409,1,1350.3471684468,0.0015285267727449536,,,,,0,,1,,
Raw,5534017,5123000000,,,-1191199253693999999,0.0,5.968969500122643E9,,,0,3,0.0,51,14157605,44,26.478052139282227,890.6676340473427,0.22376730322374527,1,2687.7904673646526,0.004063374362885952,,,,,0,,1,,
Raw,5534018,5123000000,,,-1191199253693999999,0.0,5.968969500122643E9,,,0,5,0.0,51,16298730,13,36.58806610107422,-445.96389939740857,0.07200740214481488,1,-1345.6003887509896,0.001345744007267058,,,,,0,,1,,
Raw,5534019,5123000000,,,-1191199253693999999,0.0,5.968969500122643E9,,,0,6,0.0,51,19968519,11,38.575042724609375,672.872761571758,0.058542942971226974,1,2031.7381456594976,0.0010705662425607443,,,,,0,,1,,
Raw,5534020,5123000000,,,-1191199253693999999,0.0,5.968969500122643E9,,,0,7,0.0,51,10518241,6,43.945709228515625,401.2110777987193,0.03189197637641639,1,1210.4298574336703,6.080776802264154E-4,,,,,0,,1,,
Raw,5534020,5123000000,,,-1191199253693999999,0.0,5.968969500122643E9,,,0,9,0.0,51,6948556,6,43.665443420410156,374.06607121867046,0.03183119003229694,1,1129.2980448174083,6.280184024944901E-4,,,,,0,,1,,
Raw,5534021,5123000000,,,-1191199253693999999,0.0,5.968969500122643E9,,,0,16,0.0,51,13735718,8,40.56647491455078,681.9231534066512,0.04616300237541868,1,2058.3529795340637,8.512205095030367E-4,,,,,0,,1,,
Raw,5534022,5123000000,,,-1191199253693999999,0.0,5.968969500122643E9,,,0,23,0.0,51,19501303,6,45.6022834777832,628.6466161737158,0.033507814323722185,1,1897.7206991971755,5.02493348903954E-4,,,,,0,,1,,
Raw,5534023,5123000000,,,-1191199253693999999,0.0,5.968969500122643E9,,,0,28,0.0,51,17957979,13,36.864784240722656,-538.8028068427179,0.07013991484872506,1,-1626.6624923481902,0.0013035465963184834,,,,,0,,1,,
Raw,5534024,5123000000,,,-1191199253693999999,0.0,5.968969500122643E9,,,0,30,0.0,51,8710300,6,43.58686447143555,-14.048569172888577,0.032426006283103784,1,-43.13275285730314,6.337256054393947E-4,,,,,0,,1,,
Raw,5535024,6123000000,,,-1191199253693999999,0.0,5.968969500122643E9,,,0,2,0.0,51,19117708,16,34.942771911621094,447.2798912086673,0.0869202242651142,1,1797.6031904582537,0.0016263992292806506,,,,,0,,1,,
Raw,5535025,6123000000,,,-1191199253693999999,0.0,5.968969500122643E9,,,0,3,0.0,51,14154700,47,25.93811798095703,890.6237358433414,0.23795479142434406,1,3578.440343704067,0.004323978908360004,,,,,0,,1,,
Raw,5535026,6123000000,,,-1191199253693999999,0.0,5.968969500122643E9,,,0,5,0.0,51,16300220,15,35.91337203979492,-445.90527757218933,0.07758714794267729,1,-1791.5092401225938,0.0014544443693012,,,,,0,,1,,
Raw,5535026,6123000000,,,-1191199253693999999,0.0,5.968969500122643E9,,,0,6,0.0,51,19966275,11,38.392303466796875,672.9211586600204,0.05971087453372653,1,2704.6479206584063,0.0010933282319456339,,,,,0,,1,,
Raw,5535027,6123000000,,,-1191199253693999999,0.0,5.968969500122643E9,,,0,7,0.0,51,10516901,6,43.995277404785156,401.2722898906343,0.03189173506996151,1,1611.6806840620602,6.046174676157534E-4,,,,,0,,1,,
Raw,5535028,6123000000,,,-1191199253693999999,0.0,5.968969500122643E9,,,0,9,0.0,51,6947302,6,43.106021881103516,374.10700424895435,0.033865399286423695,1,1503.3975049754356,6.697972421534359E-4,,,,,0,,1,,
Raw,5535031,6123000000,,,-1191199253693999999,0.0,5.968969500122643E9,,,0,16,0.0,51,13733439,9,40.14906311035156,681.9864786108706,0.04831353798261889,1,2740.318879695283,8.931256015785038E-4,,,,,0,,1,,
Raw,5535034,6123000000,,,-1191199253693999999,0.0,5.968969500122643E9,,,0,23,0.0,51,19499193,6,45.19490051269531,628.6786536828472,0.03350743364198734,1,2526.4088799249894,5.266224616207182E-4,,,,,0,,1,,
Raw,5535035,6123000000,,,-1191199253693999999,0.0,5.968969500122643E9,,,0,28,0.0,51,17959798,13,36.57125473022461,-538.7849476355,0.07244001469292949,1,-2165.426852269147,0.001348351128399372,,,,,0,,1,,
Raw,5535036,6123000000,,,-1191199253693999999,0.0,5.968969500122643E9,,,0,30,0.0,51,8710343,6,43.33012390136719,-13.932509887814277,0.033351774336769516,1,-57.09824292390156,6.527369259856641E-4,,,,,0,,1,,
Raw,5535037,6123000000,,,-1191199253693999999,0.0,5.968969500122643E9,,,0,6,0.0,17,17262842,13,38.23476028442383,174.40914933171018,4.227973997417198,6,262147.01079950505,3.4028234663852886E38,,,,,0,,5,,
Raw,5536053,7123000000,,,-1191199253693999999,0.0,5.968969500122643E9,,,0,2,0.0,51,19116228,16,35.18473434448242,447.3199380950816,0.0846265148815078,1,2244.9297188434193,0.0015817178646102548,,,,,0,,1,,
Raw,5536054,7123000000,,,-1191199253693999999,0.0,5.968969500122643E9,,,0,3,0.0,51,14151695,50,25.343765258789062,890.7287779743447,0.25462655454060135,1,4469.118624406113,0.004630215000361204,,,,,0,,1,,
Raw,5536055,7123000000,,,-1191199253693999999,0.0,5.968969500122643E9,,,0,5,0.0,51,16301694,16,35.030128479003906,-445.88990638429755,0.08557830242773867,1,-2237.4040438884845,0.0016101239016279578,,,,,0,,1,,
Raw,5536055,7123000000,,,-1191199253693999999,0.0,5.968969500122643E9,,,0,6,0.0,51,19964031,12,37.63731002807617,672.9045264212373,0.06480675928500657,1,3377.5861526548974,0.0011926147853955626,,,,,0,,1,,
Raw,5536056,7123000000,,,-1191199253693999999,0.0,5.968969500122643E9,,,0,7,0.0,51,10515553,6,43.963722229003906,401.33019598426654,0.03189149376350664,1,2013.0063798279084,6.068178336136043E-4,,,,,0,,1,,
Raw,5536057,7123000000,,,-1191199253693999999,0.0,5.968969500122643E9,,,0,9,0.0,51,6946066,6,42.820098876953125,374.12585184741147,0.03495667652516782,1,1877.5205184628599,6.92212488502264E-4,,,,,0,,1,,
Raw,5536058,7123000000,,,-1191199253693999999,0.0,5.968969500122643E9,,,0,16,0.0,51,13731162,9,40.11672592163086,682.0620053345251,0.04848412500438992,1,3422.345484345058,8.964569424279034E-4,,,,,0,,1,,
Raw,5536059,7123000000,,,-1191199253693999999,0.0,5.968969500122643E9,,,0,23,0.0,51,19497112,6,45.897281646728516,628.7255511430226,0.033507061281164735,1,3155.1137280609573,4.857136227656156E-4,,,,,0,,1,,
Raw,5536060,7123000000,,,-1191199253693999999,0.0,5.968969500122643E9,,,0,28,0.0,51,17961589,15,35.71529006958008,-538.751376415825,0.07960807286041766,1,-2704.200772201216,0.001487994217313826,,,,,0,,1,,
Raw,5536061,7123000000,,,-1191199253693999999,0.0,5.968969500122643E9,,,0,30,0.0,51,8710384,6,43.079288482666016,-13.891902771020881,0.034283067476160625,1,-70.98893315692605,6.718618096783757E-4,,,,,0,,1,,
Raw,5536062,7123000000,,,-1191199253693999999,0.0,5.968969500122643E9,,,0,6,0.0,16,17262235,1000000000,37.04494094848633,174.61526298753188,2.99792458E8,6,37.88158504804596,3.4028234663852886E38,,,,,0,,5,,
Raw,5536063,7123000000,,,-1191199253693999999,0.0,5.968969500122643E9,,,0,9,0.0,17,15563317,13,37.863433837890625,118.9519483655323,4.227668320385259,6,262145.8512875404,3.4028234663852886E38,,,,,0,,5,,
Raw,5536992,8123000000,,,-1191199253693999999,0.0,5.968969500122643E9,,,0,2,0.0,39,348061359114733,15,35.671714782714844,447.7122271696592,0.08019963979499595,1,2692.4643159512066,0.001495477743446827,,,,,0,,1,,
Raw,5536993,8123000000,,,-1191199253693999999,0.0,5.968969500122643E9,,,0,3,0.0,39,348061354148740,59,22.98569107055664,891.2468313134914,4.202545023351691,4,5359.895994107224,3.4028234663852886E38,,,,,0,,1,,
Raw,5536993,8123000000,,,-1191199253693999999,0.0,5.968969500122643E9,,,0,5,0.0,39,348061356303186,16,35.201297760009766,-445.60555644952774,0.0839658427708011,1,-2683.1666785975617,0.0015787046868354082,,,,,0,,1,,
Raw,5536994,8123000000,,,-1191199253693999999,0.0,5.968969500122643E9,,,0,6,0.0,39,348061359961770,12,37.64398193359375,673.2274236143344,0.06475933008525558,1,4050.675498752531,0.0011916992953047156,,,,,0,,1,,
Raw,5536994,8123000000,,,-1191199253693999999,0.0,5.968969500122643E9,,,0,7,0.0,39,348061370514206,6,43.182106018066406,401.7117831674959,0.03422255156168888,1,2414.521807742237,6.639558123424649E-4,,,,,0,,1,,
Raw,5536995,8123000000,,,-1191199253693999999,0.0,5.968969500122643E9,,,0,9,0.0,39,348061366944819,6,43.006752014160156,374.42482315602956,0.03423984865800157,1,2251.788663339288,6.774960784241557E-4,,,,,0,,1,,
Raw,5536996,8123000000,,,-1191199253693999999,0.0,5.968969500122643E9,,,0,16,0.0,39,348061353728897,9,40.0384635925293,682.3575002325779,0.048900195578977346,1,4104.5478109054175,9.04570915736258E-4,,,,,0,,1,,
Raw,5536996,8123000000,,,-1191199253693999999,0.0,5.968969500122643E9,,,0,23,0.0,39,348061359494998,6,45.991031646728516,628.9804879178132,0.03350668059942989,1,3783.9376115616155,4.804995551239699E-4,,,,,0,,1,,
Raw,5536997,8123000000,,,-1191199253693999999,0.0,5.968969500122643E9,,,0,28,0.0,39,348061357963383,17,34.72795486450195,-538.5091183148609,0.08880295547242223,1,-3242.878165094647,0.00166712433565408,,,,,0,,1,,
Raw,5536997,8123000000,,,-1191199253693999999,0.0,5.968969500122643E9,,,0,30,0.0,39,348061368710432,6,42.74287033081055,-13.517042612647685,0.035575090883078836,1,-84.68552728412843,6.983945495449007E-4,,,,,0,,1,,
Raw,5536998,8123000000,,,-1191199253693999999,0.0,5.968969500122643E9,,,0,6,0.0,17,17261664,6,38.111167907714844,177.08186148977245,0.06107050743279854,4,213.556162484526,3.4028234663852886E38,,,,,0,,5,,
Raw,5536998,8123000000,,,-1191199253693999999,0.0,5.968969500122643E9,,,0,7,0.0,17,16798606,16,36.25403594970703,29.60215572121848,4.227890388891041,6,262144.4972750236,3.4028234663852886E38,,,,,0,,5,,
Raw,5536999,8123000000,,,-1191199253693999999,0.0,5.968969500122643E9,,,0,9,0.0,16,15562893,1000000000,34.79771423339844,119.15804498012574,2.99792458E8,6,25.640535971091595,3.4028234663852886E38,,,,,0,,5,,
Raw,5537999,9123000000,,,-1191199253693999999,0.0,5.968969500122643E9,,,0,2,0.0,39,348062359113247,15,35.50053787231445,447.8144404567711,0.08172713461708137,1,3140.137513195226,0.0015252423472702503,,,,,0,,1,,
Raw,5538000,9123000000,,,-1191199253693999999,0.0,5.968969500122643E9,,,0,3,0.0,39,348062354145629,166,21.54055404663086,890.6330744364286,4.202544490813308,4,6250.746461018628,3.4028234663852886E38,,,,,1,,1,,
Raw,5538000,9123000000,,,-1191199253693999999,0.0,5.968969500122643E9,,,0,5,0.0,39,348062356304693,17,34.86674499511719,-445.58660660370106,0.08714811740946155,1,-3128.8635158291145,0.001640697126276791,,,,,0,,1,,
Raw,5538001,9123000000,,,-1191199253693999999,0.0,5.968969500122643E9,,,0,6,0.0,39,348062359959533,13,37.16223907470703,673.3247631101635,0.06824737328588959,1,4723.855375863608,0.00125966127961874,,,,,0,,1,,
Raw,5538002,9123000000,,,-1191199253693999999,0.0,5.968969500122643E9,,,0,7,0.0,39,348062370512889,6,43.19013977050781,401.78710539641133,0.03419241737802253,1,2816.1709380062484,6.633418961428106E-4,,,,,0,,1,,
Raw,5538002,9123000000,,,-1191199253693999999,0.0,5.968969500122643E9,,,0,9,0.0,39,348062366943575,6,43.06385040283203,374.46531311437866,0.03402345709459384,1,2626.142561211323,6.730571622028947E-4,,,,,0,,1,,
Raw,5538003,9123000000,,,-1191199253693999999,0.0,5.968969500122643E9,,,0,16,0.0,39,348062353726627,8,40.429664611816406,682.4633603425377,0.04685500272069773,1,4786.867319937493,8.647340000607073E-4,,,,,0,,1,,
Raw,5538003,9123000000,,,-1191199253693999999,0.0,5.968969500122643E9,,,0,23,0.0,39,348062359492918,6,46.391517639160156,629.0278625323799,0.033506306158379226,1,4412.828257178055,4.5884784776717424E-4,,,,,0,,1,,
Raw,5538004,9123000000,,,-1191199253693999999,0.0,5.968969500122643E9,,,0,28,0.0,39,348062357965182,16,35.00957107543945,-538.5668539962105,0.08607335510127984,1,-3781.511918527129,0.001613939180970192,,,,,0,,1,,
Raw,5538004,9123000000,,,-1191199253693999999,0.0,5.968969500122643E9,,,0,30,0.0,39,348062368710479,6,42.973270416259766,-13.40388140145459,0.03468485728512127,1,-98.24603938410588,6.801128038205206E-4,,,,,0,,1,,
Raw,5538005,9123000000,,,-1191199253693999999,0.0,5.968969500122643E9,,,0,6,0.0,17,17261076,6,38.59971618652344,177.27360939016978,0.057900065131339135,4,3.009929345286224,3.4028234663852886E38,,,,,0,,5,,
Raw,5538006,9123000000,,,-1191199253693999999,0.0,5.968969500122643E9,,,0,7,0.0,16,16798539,1000000000,36.11046600341797,29.60215572121848,2.99792458E8,6,6.415427581348922,3.4028234663852886E38,,,,,0,,5,,
Raw,5538006,9123000000,,,-1191199253693999999,0.0,5.968969500122643E9,,,0,9,0.0,17,15562517,6,36.91182327270508,122.50560681856791,0.06934766415281446,4,145.61715742449607,3.4028234663852886E38,,,,,0,,5,,
Raw,5538007,9123000000,,,-1191199253693999999,0.0,5.968969500122643E9,,,0,9,0.0,1074,5884927,6,40.91728210449219,242.17775157288372,0.04808577381241122,6,97.68696032339342,3.4028234663852886E38,,,,,0,,6,,
Raw,5539056,10123000000,,,-1191199253693999999,0.0,5.968969500122643E9,,,0,2,0.0,39,348063359111724,15,35.89118194580078,447.84923864488087,0.07828383296154579,1,3587.9098882678995,0.001458164770156145,,,,,0,,1,,
Raw,5539057,10123000000,,,-1191199253693999999,0.0,5.968969500122643E9,,,0,3,0.0,39,348063354142731,166,22.47981071472168,890.3735706124639,4.202543958274925,4,7141.631832515999,3.4028234663852886E38,,,,,1,,1,,
Raw,5539058,10123000000,,,-1191199253693999999,0.0,5.968969500122643E9,,,0,5,0.0,39,348063356306192,17,34.55671691894531,-445.6084534583322,0.09020863213935776,1,-3574.511002883206,0.0017003167886286974,,,,,0,,1,,
Raw,5539059,10123000000,,,-1191199253693999999,0.0,5.968969500122643E9,,,0,6,0.0,39,348063359957283,12,37.63526916503906,673.2553712286831,0.06481994377044611,1,5397.08131925738,0.001192895113490522,,,,,0,,1,,
Raw,5539060,10123000000,,,-1191199253693999999,0.0,5.968969500122643E9,,,0,7,0.0,39,348063370511536,6,43.52687072753906,401.84480699530445,0.03296388877215692,1,3217.9230015103076,6.381180719472468E-4,,,,,0,,1,,
Raw,5539060,10123000000,,,-1191199253693999999,0.0,5.968969500122643E9,,,0,9,0.0,39,348063366942321,6,43.179039001464844,374.4649041249004,0.03359145613352865,1,3000.5511419815853,6.641902145929635E-4,,,,,0,,1,,
Raw,5539061,10123000000,,,-1191199253693999999,0.0,5.968969500122643E9,,,0,16,0.0,39,348063353724363,9,40.322509765625,682.4903536481038,0.047405568360228134,1,5469.270812009806,8.754680748097599E-4,,,,,0,,1,,
Raw,5539061,10123000000,,,-1191199253693999999,0.0,5.968969500122643E9,,,0,23,0.0,39,348063359490811,6,46.3916015625,628.9978699706398,0.03350592755687244,1,5041.757851571201,4.58843307569623E-4,,,,,0,,1,,
Raw,5539062,10123000000,,,-1191199253693999999,0.0,5.968969500122643E9,,,0,28,0.0,39,348063357966983,15,35.52753448486328,-538.5911207052548,0.08127801337908852,1,-4320.125835580297,0.001520509016700089,,,,,0,,1,,
Raw,5539062,10123000000,,,-1191199253693999999,0.0,5.968969500122643E9,,,0,30,0.0,39,348063368710512,6,42.9515380859375,-13.351406134253892,0.0347678375824049,1,-111.70153329461665,6.818167748861015E-4,,,,,0,,1,,
Raw,5539063,10123000000,,,-1191199253693999999,0.0,5.968969500122643E9,,,0,6,0.0,17,17260483,6,38.80542755126953,177.22228121064643,0.05661746307730128,1,180.18783492797408,0.001052108476869762,,,,,0,,5,,
Raw,5539063,10123000000,,,-1191199253693999999,0.0,5.968969500122643E9,,,0,7,0.0,17,16798410,6,37.29391098022461,32.2107949911714,0.06670599502173671,4,37.18496770577212,3.4028234663852886E38,,,,,0,,5,,
Raw,5539064,10123000000,,,-1191199253693999999,0.0,5.968969500122643E9,,,0,9,0.0,17,15562103,6,36.8718376159668,121.47906878994326,0.06965464340751851,4,1.8184479833952025,3.4028234663852886E38,,,,,0,,5,,
Raw,5539064,10123000000,,,-1191199253693999999,0.0,5.968969500122643E9,,,0,5,0.0,1074,3344607,8,36.256805419921875,-142.70772730403985,0.08102330193460128,6,-56.7746263136938,3.4028234663852886E38,,,,,0,,6,,
Raw,5539065,10123000000,,,-1191199253693999999,0.0,5.968969500122643E9,,,0,9,0.0,1074,5884117,6,40.89057922363281,242.40059971485812,0.048230407908915,4,0.7253209706012456,3.4028234663852886E38,,,,,0,,6,,
Raw,5540010,11123000000,,,-1191199253693999999,0.0,5.968969500122643E9,,,0,2,0.0,39,348064359110230,14,36.459129333496094,448.0203666590819,0.07354616348206922,1,4035.7831892736604,0.0013658697716891766,,,,,0,,1,,
Raw,5540011,11123000000,,,-1191199253693999999,0.0,5.968969500122643E9,,,0,3,0.0,39,348064354139696,166,21.533363342285156,890.8865797480453,4.2025434257365415,4,8032.533203084733,3.4028234663852886E38,,,,,1,,1,,
Raw,5540011,11123000000,,,-1191199253693999999,0.0,5.968969500122643E9,,,0,5,0.0,39,348064356307692,21,32.82351303100586,-445.52471286265563,0.10948318492426534,1,-4020.1363471658556,0.0020758220925927162,,,,,0,,1,,
Raw,5540012,11123000000,,,-1191199253693999999,0.0,5.968969500122643E9,,,0,6,0.0,39,348064359955071,12,37.5238037109375,673.4266014902537,0.06561036802612069,1,6070.357660043467,0.0012083020992577076,,,,,0,,1,,
Raw,5540013,11123000000,,,-1191199253693999999,0.0,5.968969500122643E9,,,0,7,0.0,39,348064370510206,6,43.24319076538086,401.9825001196566,0.03399524920211036,1,3619.7654166558436,6.59302924759686E-4,,,,,0,,1,,
Raw,5540014,11123000000,,,-1191199253693999999,0.0,5.968969500122643E9,,,0,9,0.0,39,348064366941080,6,43.30513381958008,374.57049157520805,0.03312511060720519,1,3375.0119330191596,6.546176737174392E-4,,,,,0,,1,,
Raw,5540014,11123000000,,,-1191199253693999999,0.0,5.968969500122643E9,,,0,16,0.0,39,348064353722081,9,39.69639587402344,682.6051433616726,0.050763975908665576,1,6151.750949042199,9.409054182469845E-4,,,,,0,,1,,
Raw,5540015,11123000000,,,-1191199253693999999,0.0,5.968969500122643E9,,,0,23,0.0,39,348064359488716,6,46.17495346069336,629.0640581012071,0.03350555103559372,1,5670.710861820891,4.704318125732243E-4,,,,,0,,1,,
Raw,5540016,11123000000,,,-1191199253693999999,0.0,5.968969500122643E9,,,0,28,0.0,39,348064357968792,16,34.997798919677734,-538.531033334405,0.08618635308945849,1,-4858.744895931779,0.0016161279054358602,,,,,0,,1,,
Raw,5540016,11123000000,,,-1191199253693999999,0.0,5.968969500122643E9,,,0,30,0.0,39,348064368710558,6,43.23501205444336,-13.209258858864914,0.033701778948423106,1,-125.07371718100796,6.599240005016327E-4,,,,,0,,1,,
Raw,5540017,11123000000,,,-1191199253693999999,0.0,5.968969500122643E9,,,0,6,0.0,17,17259896,6,38.69167709350586,177.25900505754976,0.057322760240335086,1,357.3849708035484,0.0010659773834049702,,,,,0,,5,,
Raw,5540017,11123000000,,,-1191199253693999999,0.0,5.968969500122643E9,,,0,7,0.0,17,16798294,6,38.13409423828125,32.29802264818093,0.060834368264424316,4,0.5160586870164465,3.4028234663852886E38,,,,,0,,5,,
Raw,5540018,11123000000,,,-1191199253693999999,0.0,5.968969500122643E9,,,0,9,0.0,17,15561693,6,36.759647369384766,121.56065367024473,0.0705237086047451,1,123.25307811469234,0.0013315255055204034,,,,,0,,5,,
Raw,5540018,11123000000,,,-1191199253693999999,0.0,5.968969500122643E9,,,0,5,0.0,1074,3345092,8,35.43458557128906,-142.58562690354688,0.08900817413092371,4,-199.32252065620568,3.4028234663852886E38,,,,,0,,6,,
Raw,5540019,11123000000,,,-1191199253693999999,0.0,5.968969500122643E9,,,0,9,0.0,1074,5883313,6,40.828956604003906,242.47696145869747,0.04856612343402958,1,243.11239058066934,7.786487112753093E-4,,,,,0,,6,,
Raw,5541014,12123000000,,,-1191199253693999999,0.0,5.968969500122643E9,,,0,2,0.0,39,348065359108747,13,37.123329162597656,447.99218046753754,0.06838463505415138,1,4483.75130533844,0.0012653166195377707,,,,,0,,1,,
Raw,5541014,12123000000,,,-1191199253693999999,0.0,5.968969500122643E9,,,0,3,0.0,38,348065354136911,1000000000,20.954580307006836,890.8800359163929,2.99792458E8,4,8923.456576997134,3.4028234663852886E38,,,,,1,,1,,
Raw,5541015,12123000000,,,-1191199253693999999,0.0,5.968969500122643E9,,,0,5,0.0,39,348065356309174,22,32.29351806640625,-445.60105756526673,0.11618732727180325,1,-4465.714695968529,0.0022064284421503544,,,,,0,,1,,
Raw,5541016,12123000000,,,-1191199253693999999,0.0,5.968969500122643E9,,,0,6,0.0,39,348065359952802,12,37.70119857788086,673.3208095452069,0.06435611532007435,1,6743.691407300444,0.0011838749051094055,,,,,0,,1,,
Raw,5541016,12123000000,,,-1191199253693999999,0.0,5.968969500122643E9,,,0,7,0.0,39,348065370508858,6,43.52611541748047,401.94759968417725,0.03296610629526808,1,4021.703604259366,6.381733692251146E-4,,,,,0,,1,,
Raw,5541017,12123000000,,,-1191199253693999999,0.0,5.968969500122643E9,,,0,9,0.0,39,348065366939809,6,43.11901092529297,374.47662848994423,0.033815315715669106,1,3749.5095701724886,6.687964196316898E-4,,,,,0,,1,,
Raw,5541017,12123000000,,,-1191199253693999999,0.0,5.968969500122643E9,,,0,16,0.0,39,348065353719816,10,39.45159149169922,682.5592002102799,0.05214411569594571,1,6834.31399118983,9.678011992946267E-4,,,,,0,,1,,
Raw,5541018,12123000000,,,-1191199253693999999,0.0,5.968969500122643E9,,,0,23,0.0,39,348065359486614,6,46.0360221862793,628.9476324297252,0.03350517243408693,1,6299.693933383655,4.7801691107451916E-4,,,,,0,,1,,
Raw,5541018,12123000000,,,-1191199253693999999,0.0,5.968969500122643E9,,,0,28,0.0,39,348065357970596,15,35.431190490722656,-538.6447324093651,0.08214913800209378,1,-5397.349716655271,0.0015374685171991587,,,,,0,,1,,
Raw,5541019,12123000000,,,-1191199253693999999,0.0,5.968969500122643E9,,,0,30,0.0,39,348065368710600,6,43.66154479980469,-13.25370770755449,0.03216187348573618,1,-138.34202428828422,6.283001275733113E-4,,,,,0,,1,,
Raw,5541020,12123000000,,,-1191199253693999999,0.0,5.968969500122643E9,,,0,6,0.0,51,17259298,6,37.99629211425781,177.1846712198735,0.06184181439260858,1,534.5950022270185,0.0011548280017450452,,,,,0,,5,,
Raw,5541020,12123000000,,,-1191199253693999999,0.0,5.968969500122643E9,,,0,7,0.0,17,16798195,6,37.891910552978516,32.19160443799552,0.06246899067110517,1,32.733615298382105,0.0011687898077070713,,,,,0,,5,,
Raw,5541021,12123000000,,,-1191199253693999999,0.0,5.968969500122643E9,,,0,9,0.0,51,15561283,7,36.034305572509766,121.40471791103874,0.07642203716942608,1,244.68797432560615,0.0014474935596808791,,,,,0,,5,,
Raw,5541021,12123000000,,,-1191199253693999999,0.0,5.968969500122643E9,,,0,4,0.0,1074,4603998,6,39.4534912109375,574.9644977081589,0.0564875986000182,3,576.6934607750575,9.122520568780601E-4,,,,,0,,6,,
Raw,5541022,12123000000,,,-1191199253693999999,0.0,5.968969500122643E9,,,0,5,0.0,1074,3345570,10,34.361629486083984,-142.3384438876152,0.10063215568954315,4,-343.3757460870278,3.4028234663852886E38,,,,,0,,6,,
Raw,5541023,12123000000,,,-1191199253693999999,0.0,5.968969500122643E9,,,0,9,0.0,1074,5882503,6,40.35661697387695,242.42742260814157,0.0512210061737397,1,485.56678281943323,8.221643511205912E-4,,,,,0,,6,,
Nav,2,257,1,-1,1,34,-61,-79,17,28,83,105,-37,59,20,0,38,15,88,-50,-51,47,-50,111,-70,59,-111,-11,49,28,50,53,16,0,-107,-120,-100,0,63,-21,-72,10,75,-18,108
Nav,5,257,1,-1,1,34,-61,-79,17,28,83,105,-37,59,20,0,38,15,88,-50,-51,47,-50,111,-70,59,-111,-11,49,28,50,58,107,17,85,-120,-120,0,0,3,29,63,28,-108,112
Nav,6,257,1,-1,1,34,-61,-79,17,28,83,105,-37,59,20,0,38,15,88,-50,-51,47,-50,111,-70,59,-111,-11,49,28,50,2,-112,1,21,-120,-79,0,0,5,-8,13,46,-3,75
Nav,7,257,1,-1,1,34,-61,-79,17,28,83,105,-37,59,20,0,38,15,88,-50,-51,47,-50,111,-70,59,-111,-11,49,28,50,58,56,16,-43,-120,-91,0,63,-11,37,9,-65,78,60
Nav,9,257,1,-1,1,34,-61,-79,17,28,83,105,-37,59,20,0,38,15,88,-50,-51,47,-50,111,-70,59,-111,-11,49,28,50,0,-122,0,-107,-120,-75,0,0,12,-71,14,-40,-9,16
Nav,16,257,1,-1,1,34,-61,-79,17,28,83,105,-37,59,20,0,38,15,88,-50,-51,47,-50,111,-70,59,-111,-11,49,28,50,58,107,13,-107,-120,-116,0,0,0,0,1,54,48,-89
Nav,23,257,1,-1,1,34,-61,-79,17,28,83,105,-37,59,20,0,38,15,88,-50,-51,47,-50,111,-70,59,-111,-11,49,28,50,53,16,16,-107,-120,-88,0,63,-1,-90,56,-36,78,28
Nav,28,257,1,-1,1,34,-61,-79,17,28,83,105,-37,59,20,0,38,15,88,-50,-51,47,-50,111,-70,59,-111,-11,49,28,50,58,56,7,-43,-120,-107,0,0,7,24,21,87,-30,43
Nav,30,257,1,-1,1,34,-61,-79,17,28,83,105,-37,59,20,64,40,13,88,-50,-53,47,-50,111,-109,59,-111,-11,24,28,50,2,28,12,85,-120,-84,0,63,-5,47,4,122,120,-97
Raw,5542008,13123000000,,,-1191199253693999999,0.0,5.968969500122643E9,,,0,2,0.0,39,348066359107248,14,36.25836181640625,448.05509668227864,0.0751850170726226,1,4931.781189389408,0.001397808431647718,,,,,0,,1,,
Raw,5542009,13123000000,,,-1191199253693999999,0.0,5.968969500122643E9,,,0,3,0.0,39,348066354134083,166,21.69723892211914,891.1793480495762,4.202542360659775,4,9814.377558196316,3.4028234663852886E38,,,,,1,,1,,
Raw,5542009,13123000000,,,-1191199253693999999,0.0,5.968969500122643E9,,,0,5,0.0,39,348066356310696,24,31.540950775146484,-445.5609765963959,0.12643782577293217,1,-4911.291921918398,0.0022685162257403135,,,,,0,,1,,
Raw,5542010,13123000000,,,-1191199253693999999,0.0,5.968969500122643E9,,,0,6,0.0,39,348066359950589,13,37.12763595581055,673.3698201176867,0.06850384876377108,1,7417.034561985316,0.0012646897230297327,,,,,0,,1,,
Raw,5542010,13123000000,,,-1191199253693999999,0.0,5.968969500122643E9,,,0,7,0.0,39,348066370507525,6,43.01158142089844,402.0932340208992,0.03486235898496126,1,4423.701614421899,6.771197658963501E-4,,,,,0,,1,,
Raw,5542011,13123000000,,,-1191199253693999999,0.0,5.968969500122643E9,,,0,9,0.0,39,348066366938559,7,42.34413146972656,374.58092080690403,0.03685397348934674,1,4124.025994568366,7.312028901651502E-4,,,,,0,,1,,
Raw,5542012,13123000000,,,-1191199253693999999,0.0,5.968969500122643E9,,,0,16,0.0,39,348066353717534,10,38.90923309326172,682.6784206431967,0.05534443423279212,1,7516.928107328253,0.001030158600769937,,,,,0,,1,,
Raw,5542012,13123000000,,,-1191199253693999999,0.0,5.968969500122643E9,,,0,23,0.0,39,348066359484529,6,46.141143798828125,629.0419045044673,0.03350479591280821,1,6928.678760192037,4.7226669266819954E-4,,,,,0,,1,,
Raw,5542013,13123000000,,,-1191199253693999999,0.0,5.968969500122643E9,,,0,28,0.0,39,348066357972385,15,35.78937530517578,-538.57724914545,0.0789613465986202,1,-5935.975954076136,0.0014753565192222595,,,,,0,,1,,
Raw,5542013,13123000000,,,-1191199253693999999,0.0,5.968969500122643E9,,,0,30,0.0,39,348066368710645,6,43.631839752197266,-13.079256653842485,0.03226668577650167,1,-151.53971819589987,6.304526468738914E-4,,,,,0,,1,,
Raw,5542014,13123000000,,,-1191199253693999999,0.0,5.968969500122643E9,,,0,6,0.0,51,17258706,6,37.95311737060547,177.22292877732036,0.062134369345949764,1,711.7846944986985,0.0011605825275182724,,,,,0,,5,,
Raw,5542015,13123000000,,,-1191199253693999999,0.0,5.968969500122643E9,,,0,7,0.0,17,16798080,6,37.5277099609375,32.29204756752178,0.06501458654949435,1,64.97132988180806,0.0012188393156975508,,,,,0,,5,,
Raw,5542016,13123000000,,,-1191199253693999999,0.0,5.968969500122643E9,,,0,9,0.0,51,15560880,7,35.621368408203125,121.44690347159985,0.08000662791474616,1,366.1016499395056,0.0015179709298536181,,,,,0,,5,,
Raw,5542016,13123000000,,,-1191199253693999999,0.0,5.968969500122643E9,,,0,4,0.0,1074,4602097,6,39.358863830566406,575.0270730983348,0.057096939003134756,1,1151.6863711183119,9.222449734807014E-4,,,,,0,,6,,
Raw,5542017,13123000000,,,-1191199253693999999,0.0,5.968969500122643E9,,,0,5,0.0,1074,3346048,10,33.757057189941406,-142.3064148990979,0.10784277532312364,4,-487.6016577954321,3.4028234663852886E38,,,,,0,,6,,
Raw,5542017,13123000000,,,-1191199253693999999,0.0,5.968969500122643E9,,,0,9,0.0,1074,5881696,6,40.22589874267578,242.51269691436164,0.05198149594764162,1,728.0360087012009,8.346312097273767E-4,,,,,0,,6,,
Raw,5543001,14123000000,,,-1191199253693999999,0.0,5.968969500122643E9,,,0,2,0.0,47,348067359105741,16,35.19212341308594,448.1803837924565,0.08455558742559949,1,5379.863894762894,0.0015803728019818664,,,,,0,,1,,
Raw,5543001,14123000000,,,-1191199253693999999,0.0,5.968969500122643E9,,,0,3,0.0,39,348067354131099,166,20.849742889404297,891.3447161286249,4.202541828121392,4,10705.280860589388,3.4028234663852886E38,,,,,1,,1,,
Raw,5543002,14123000000,,,-1191199253693999999,0.0,5.968969500122643E9,,,0,5,0.0,47,348067356312197,29,30.156225204467773,-445.5117956116335,0.147783678278263,1,-5356.894564395641,0.0026605913881212473,,,,,0,,1,,
Raw,5543003,14123000000,,,-1191199253693999999,0.0,5.968969500122643E9,,,0,6,0.0,47,348067359948320,13,36.73241424560547,673.4201939884274,0.07152541330348583,1,8090.3826353072145,0.0013235643273219466,,,,,0,,1,,
Raw,5543003,14123000000,,,-1191199253693999999,0.0,5.968969500122643E9,,,0,7,0.0,47,348067370506197,7,42.45629119873047,402.0891441261165,0.03703886831970932,1,4825.734954622599,7.218215032480657E-4,,,,,0,,1,,
Raw,5543004,14123000000,,,-1191199253693999999,0.0,5.968969500122643E9,,,0,9,0.0,47,348067366937305,8,41.27703094482422,374.5549158925771,0.0415081259727004,1,4498.537809678244,8.267855737358332E-4,,,,,0,,1,,
Raw,5543005,14123000000,,,-1191199253693999999,0.0,5.968969500122643E9,,,0,16,0.0,47,348067353715240,10,38.663612365722656,682.7159113453718,0.056860641737428025,1,8199.569475600507,0.0010597053915262222,,,,,0,,1,,
Raw,5543005,14123000000,,,-1191199253693999999,0.0,5.968969500122643E9,,,0,23,0.0,47,348067359482422,6,45.64690399169922,628.9924849425092,0.033504417311301424,1,7557.6374203747455,4.999184748157859E-4,,,,,0,,1,,
Raw,5543006,14123000000,,,-1191199253693999999,0.0,5.968969500122643E9,,,0,28,0.0,47,348067357974183,15,35.767913818359375,-538.6084686756249,0.07914900813230158,1,-6474.647158053838,0.0014790064888074994,,,,,0,,1,,
Raw,5543006,14123000000,,,-1191199253693999999,0.0,5.968969500122643E9,,,0,30,0.0,47,348067368710687,6,43.417240142822266,-13.090445285272864,0.03303463732845213,1,-164.70327031683362,6.462231394834816E-4,,,,,0,,1,,
Raw,5543007,14123000000,,,-1191199253693999999,0.0,5.968969500122643E9,,,0,6,0.0,51,17258119,6,37.64433288574219,177.18632421901486,0.06427055137954113,1,888.9419398086426,0.001202583429403603,,,,,0,,5,,
Raw,5543007,14123000000,,,-1191199253693999999,0.0,5.968969500122643E9,,,0,7,0.0,51,16797976,6,37.17094039916992,32.25189204327731,0.067613948002303,1,97.17957414477152,0.001269945059902966,,,,,0,,5,,
Raw,5543008,14123000000,,,-1191199253693999999,0.0,5.968969500122643E9,,,0,9,0.0,51,15560471,8,35.23472213745117,121.37807395065204,0.08352100680261032,1,487.4673537171127,0.001587068778462708,,,,,0,,5,,
Raw,5543009,14123000000,,,-1191199253693999999,0.0,5.968969500122643E9,,,0,1,0.0,50,5991782,1000000000,31.259445190429688,748.867437354364,2.99792458E8,6,1053.8978267695265,3.4028234663852886E38,,,,,1,,6,,
Raw,5543009,14123000000,,,-1191199253693999999,0.0,5.968969500122643E9,,,0,4,0.0,1074,4600168,6,39.17988204956055,575.0340259194654,0.058268103240038394,1,1726.673017437792,9.414458181709051E-4,,,,,0,,6,,
Raw,5543010,14123000000,,,-1191199253693999999,0.0,5.968969500122643E9,,,0,5,0.0,1074,3346522,11,33.11311340332031,-142.32891784101707,0.11609548104253109,4,-631.2791087746839,3.4028234663852886E38,,,,,0,,6,,
Raw,5543010,14123000000,,,-1191199253693999999,0.0,5.968969500122643E9,,,0,9,0.0,1074,5880889,6,39.92291259765625,242.52939731805782,0.05378903107106375,1,970.5146579714822,8.642589673399925E-4,,,,,0,,6,,
Raw,5544002,15123000000,,,-1191199253693999999,0.0,5.968969500122643E9,,,0,2,0.0,47,348068359104246,16,35.38847351074219,448.16566017123864,0.08274214445448907,1,5828.01388744624,0.0015450480859726667,,,,,0,,1,,
Raw,5544003,15123000000,,,-1191199253693999999,0.0,5.968969500122643E9,,,0,3,0.0,39,348068354128115,166,21.13800621032715,890.7504544166932,4.202541295583009,4,11596.18511618534,3.4028234663852886E38,,,,,1,,1,,
Raw,5544003,15123000000,,,-1191199253693999999,0.0,5.968969500122643E9,,,0,5,0.0,47,348068356313670,30,29.939939498901367,-445.58660660370106,0.15143609277922698,1,-5802.491891086659,0.0027276738546788692,,,,,0,,1,,
Raw,5544004,15123000000,,,-1191199253693999999,0.0,5.968969500122643E9,,,0,6,0.0,47,348068359946060,13,37.0578727722168,673.3562552999906,0.06902653102639525,1,8763.750949164674,0.0012748882872983813,,,,,0,,1,,
Raw,5544004,15123000000,,,-1191199253693999999,0.0,5.968969500122643E9,,,0,7,0.0,47,348068370504864,7,42.34529113769531,402.13048614587865,0.03749070217509143,1,5227.847643706192,7.311053923331201E-4,,,,,0,,1,,
Raw,5544005,15123000000,,,-1191199253693999999,0.0,5.968969500122643E9,,,0,9,0.0,47,348068366936068,7,41.90475082397461,374.5877372982086,0.038700999662245744,1,4873.076535311857,7.69142818171531E-4,,,,,0,,1,,
Raw,5544005,15123000000,,,-1191199253693999999,0.0,5.968969500122643E9,,,0,16,0.0,47,348068353712980,10,38.79890060424805,682.725249938459,0.0560195805703351,1,8882.25858145554,0.0010433277348056436,,,,,0,,1,,
Raw,5544006,15123000000,,,-1191199253693999999,0.0,5.968969500122643E9,,,0,23,0.0,47,348068359480321,6,45.72566223144531,628.9699905212042,0.0335040407900227,1,8186.601138407134,4.954062169417739E-4,,,,,0,,1,,
Raw,5544006,15123000000,,,-1191199253693999999,0.0,5.968969500122643E9,,,0,28,0.0,47,348068357976012,15,35.65910339355469,-538.6742818991704,0.0801063374060823,1,-7013.334022562341,0.0014976507518440485,,,,,0,,1,,
Raw,5544007,15123000000,,,-1191199253693999999,0.0,5.968969500122643E9,,,0,30,0.0,47,348068368710726,6,43.3342170715332,-13.07151887113504,0.033336865342268845,1,-177.78562272530772,6.524295313283801E-4,,,,,0,,1,,
Raw,5544008,15123000000,,,-1191199253693999999,0.0,5.968969500122643E9,,,0,6,0.0,51,17257534,6,37.79606628417969,177.12799209467607,0.06321122020310296,1,1066.084179327861,0.0011817581253126264,,,,,0,,5,,
Raw,5544008,15123000000,,,-1191199253693999999,0.0,5.968969500122643E9,,,0,7,0.0,51,16797872,6,36.989891052246094,32.20621090076908,0.06897441715305483,1,129.4023680389718,0.0012966934591531754,,,,,0,,5,,
Raw,5544009,15123000000,,,-1191199253693999999,0.0,5.968969500122643E9,,,0,9,0.0,51,15560067,8,35.3306770324707,121.31244818061737,0.08263408076726697,1,608.8167300573289,0.0015696326736360788,,,,,0,,5,,
Raw,5544009,15123000000,,,-1191199253693999999,0.0,5.968969500122643E9,,,0,1,0.0,1074,5989218,166,28.089223861694336,748.2718123441714,0.20702274876723858,4,2.2331579086128386,3.4028234663852886E38,,,,,1,,6,,
Raw,5544010,15123000000,,,-1191199253693999999,0.0,5.968969500122643E9,,,0,4,0.0,1074,4598257,6,39.21683883666992,575.0015794208557,0.05802388030542591,1,2301.675661018223,9.374488145112991E-4,,,,,0,,6,,
Raw,5544010,15123000000,,,-1191199253693999999,0.0,5.968969500122643E9,,,0,5,0.0,1074,3346997,11,32.97367858886719,-142.47822456242938,0.11796454931194594,4,-773.7436791577254,3.4028234663852886E38,,,,,0,,6,,
Raw,5544011,15123000000,,,-1191199253693999999,0.0,5.968969500122643E9,,,0,9,0.0,1074,5880081,6,39.88829040527344,242.48249985788243,0.05399950854609903,1,1213.019965779373,8.677106816321611E-4,,,,,0,,6,,
Raw,5544997,16123000000,,,-1191199253693999999,0.0,5.968969500122643E9,,,0,2,0.0,47,348069359102765,16,35.216156005859375,448.33034660115686,0.08433089783246339,1,6276.26947808686,0.0015760064125061035,,,,,0,,1,,
Raw,5544998,16123000000,,,-1191199253693999999,0.0,5.968969500122643E9,,,0,3,0.0,39,348069354125131,166,20.951190948486328,890.3981781460734,4.202540763044626,4,12487.087219264522,3.4028234663852886E38,,,,,1,,1,,
Raw,5544998,16123000000,,,-1191199253693999999,0.0,5.968969500122643E9,,,0,5,0.0,47,348069356315177,31,29.477033615112305,-445.43078161247877,0.15956534112377385,1,-6248.044805284428,0.0028769862838089466,,,,,0,,1,,
Raw,5544999,16123000000,,,-1191199253693999999,0.0,5.968969500122643E9,,,0,6,0.0,47,348069359943825,13,37.12135314941406,673.5085357157345,0.06854960546016242,1,9437.176537801712,0.0012656047474592924,,,,,0,,1,,
Raw,5544999,16123000000,,,-1191199253693999999,0.0,5.968969500122643E9,,,0,7,0.0,47,348069370503523,7,42.118953704833984,402.2485818577302,0.0384303495103685,1,5630.045538499283,7.504067034460604E-4,,,,,0,,1,,
Raw,5545000,16123000000,,,-1191199253693999999,0.0,5.968969500122643E9,,,0,9,0.0,47,348069366934824,7,41.47914123535156,374.6331692127535,0.04058168808559959,1,5247.653688851392,8.077695965766907E-4,,,,,0,,1,,
Raw,5545000,16123000000,,,-1191199253693999999,0.0,5.968969500122643E9,,,0,16,0.0,47,348069353710702,10,38.84656524658203,682.8515595223325,0.05572608119345501,1,9565.031655789644,0.0010376180289313197,,,,,0,,1,,
Raw,5545001,16123000000,,,-1191199253693999999,0.0,5.968969500122643E9,,,0,23,0.0,47,348069359478225,6,45.58180618286133,629.0587412379896,0.033503662188515915,1,8815.59620899453,5.036792135797441E-4,,,,,0,,1,,
Raw,5545002,16123000000,,,-1191199253693999999,0.0,5.968969500122643E9,,,0,28,0.0,47,348069357977777,15,35.8388557434082,-538.6501856024088,0.07853213730361053,1,-7552.019248371532,0.0014669756637886167,,,,,0,,1,,
Raw,5545002,16123000000,,,-1191199253693999999,0.0,5.968969500122643E9,,,0,30,0.0,47,348069368710772,6,43.50348663330078,-12.939535623327224,0.03272373892408445,1,-190.7769329325227,6.398382829502225E-4,,,,,0,,1,,
Raw,5545003,16123000000,,,-1191199253693999999,0.0,5.968969500122643E9,,,0,6,0.0,47,348055317256935,6,37.761497497558594,177.21631678075494,0.06345078342686272,1,1243.242374939837,0.0011864707339555025,,,,,0,,5,,
Raw,5545003,16123000000,,,-1191199253693999999,0.0,5.968969500122643E9,,,0,7,0.0,51,16797762,6,37.16945266723633,32.279149487881426,0.06762495656919257,1,161.65984130894847,0.0012701625237241387,,,,,0,,5,,
Raw,5545004,16123000000,,,-1191199253693999999,0.0,5.968969500122643E9,,,0,9,0.0,47,348055315559666,8,35.195613861083984,121.40391697331046,0.08388515488483878,1,730.1739119990611,0.0015942309983074665,,,,,0,,5,,
Raw,5545005,16123000000,,,-1191199253693999999,0.0,5.968969500122643E9,,,0,1,0.0,50,5986783,1000000000,24.993127822875977,747.1142357908307,2.99792458E8,4,753.8355663112469,3.4028234663852886E38,,,,,1,,6,,
Raw,5545005,16123000000,,,-1191199253693999999,0.0,5.968969500122643E9,,,0,4,0.0,1074,4596338,6,38.96710205078125,575.0769698146842,0.05969192365610673,1,2876.715230551948,9.64793493039906E-4,,,,,0,,6,,
Raw,5545006,16123000000,,,-1191199253693999999,0.0,5.968969500122643E9,,,0,5,0.0,1074,3347475,11,32.91216278076172,-142.33584510030533,0.11879882061465347,4,-0.42367697643385327,3.4028234663852886E38,,,,,0,,6,,
Raw,5545007,16123000000,,,-1191199253693999999,0.0,5.968969500122643E9,,,0,9,0.0,1074,5879268,6,39.775978088378906,242.61504653129964,0.054688351105184135,1,1455.583337808786,8.79003491718322E-4,,,,,0,,6,,
Raw,5546002,17123000000,,,-1191199253693999999,0.0,5.968969500122643E9,,,0,2,0.0,47,348070359101265,15,35.54623794555664,448.4075092827245,0.08131414278002164,1,6724.606822720088,0.0015172383282333612,,,,,0,,1,,
Raw,5546002,17123000000,,,-1191199253693999999,0.0,5.968969500122643E9,,,0,3,0.0,39,348070354122168,166,21.802947998046875,891.1673510248802,4.2025402305062425,4,13378.029828380777,3.4028234663852886E38,,,,,1,,1,,
Raw,5546003,17123000000,,,-1191199253693999999,0.0,5.968969500122643E9,,,0,5,0.0,47,348070356316670,29,30.048786163330078,-445.5131589098944,0.14958733585658268,1,-6693.585146724547,0.002693706192076206,,,,,0,,1,,
Raw,5546003,17123000000,,,-1191199253693999999,0.0,5.968969500122643E9,,,0,6,0.0,47,348070359941593,12,37.216514587402344,673.468931901255,0.06784138765693343,1,10110.638703422803,0.0012518144212663174,,,,,0,,1,,
Raw,5546004,17123000000,,,-1191199253693999999,0.0,5.968969500122643E9,,,0,7,0.0,47,348070370502196,7,41.767601013183594,402.36268992216856,0.03993853149515181,1,6032.347441267242,7.813836564309895E-4,,,,,0,,1,,
Raw,5546005,17123000000,,,-1191199253693999999,0.0,5.968969500122643E9,,,0,9,0.0,47,348070366933587,7,41.624603271484375,374.6662973604937,0.03992821772443403,1,5622.278243113398,7.943544187583029E-4,,,,,0,,1,,
Raw,5546005,17123000000,,,-1191199253693999999,0.0,5.968969500122643E9,,,0,16,0.0,47,348070353708426,11,38.62184524536133,682.8622614136807,0.05712159802654915,1,10247.875600528401,0.0010648133466020226,,,,,0,,1,,
Raw,5546006,17123000000,,,-1191199253693999999,0.0,5.968969500122643E9,,,0,23,0.0,47,348070359476139,6,45.562889099121094,629.0104123146402,0.03350328774746525,1,9444.610895339389,5.047776503488421E-4,,,,,0,,1,,
Raw,5546007,17123000000,,,-1191199253693999999,0.0,5.968969500122643E9,,,0,28,0.0,47,348070357979592,15,35.54663848876953,-538.7049901924975,0.0811087993078366,1,-8090.701250898885,0.0015171682462096214,,,,,0,,1,,
Raw,5546007,17123000000,,,-1191199253693999999,0.0,5.968969500122643E9,,,0,30,0.0,47,348070368710810,6,43.64039611816406,-12.86778566188611,0.03223648918599355,1,-203.67290736625137,6.29832036793232E-4,,,,,0,,1,,
Raw,5546008,17123000000,,,-1191199253693999999,0.0,5.968969500122643E9,,,0,6,0.0,47,348056317256350,6,37.855323791503906,177.18199574703647,0.06280233057577608,1,1420.4091764066773,0.0011737231398001313,,,,,0,,5,,
Raw,5546008,17123000000,,,-1191199253693999999,0.0,5.968969500122643E9,,,0,7,0.0,51,16797651,6,37.240509033203125,32.33015388406781,0.06709861310518411,1,193.95458068956063,0.0012598139001056552,,,,,0,,5,,
Raw,5546009,17123000000,,,-1191199253693999999,0.0,5.968969500122643E9,,,0,9,0.0,47,348056315559266,8,35.041011810302734,121.36684378122777,0.08534125627993061,1,851.5258591506926,0.001622860785573721,,,,,0,,5,,
Raw,5546010,17123000000,,,-1191199253693999999,0.0,5.968969500122643E9,,,0,1,0.0,1074,5984226,166,24.94865608215332,746.7190156249922,0.29672822366453633,4,1502.4730647611855,3.4028234663852886E38,,,,,1,,6,,
Raw,5546010,17123000000,,,-1191199253693999999,0.0,5.968969500122643E9,,,0,4,0.0,1074,4594409,6,39.1264762878418,575.1171871133811,0.058621334285411886,1,3451.800258082793,9.472521487623453E-4,,,,,0,,6,,
Raw,5546011,17123000000,,,-1191199253693999999,0.0,5.968969500122643E9,,,0,5,0.0,1074,3347955,11,32.921302795410156,-142.3532612355885,0.1186745561113059,1,-142.79168801420042,0.0016759263817220926,,,,,0,,6,,
Raw,5546011,17123000000,,,-1191199253693999999,0.0,5.968969500122643E9,,,0,9,0.0,1074,5878459,6,39.83766174316406,242.64210800177875,0.05430868868208977,1,1698.1986084671737,8.727833046577871E-4,,,,,0,,6,,
Raw,5547014,18123000000,,,-1191199253693999999,0.0,5.968969500122643E9,,,0,2,0.0,47,348071359099785,15,35.460575103759766,448.4413872445082,0.0820857492926722,1,7173.044447144173,0.001532276044599712,,,,,0,,1,,
Raw,5547015,18123000000,,,-1191199253693999999,0.0,5.968969500122643E9,,,0,3,0.0,39,348071354119250,166,21.478805541992188,891.8282098568575,4.202539697967859,4,14269.004402191902,3.4028234663852886E38,,,,,1,,1,,
Raw,5547016,18123000000,,,-1191199253693999999,0.0,5.968969500122643E9,,,0,5,0.0,47,348071356318113,166,30.494558334350586,-445.49560644478515,0.1422510538063988,1,-7139.082777410407,0.0025589484721422195,,,,,1,,1,,
Raw,5547016,18123000000,,,-1191199253693999999,0.0,5.968969500122643E9,,,0,6,0.0,47,348071359939349,12,37.72370910644531,673.5028780279517,0.06419642037242157,1,10784.15966165091,0.0011808108538389206,,,,,0,,1,,
Raw,5547017,18123000000,,,-1191199253693999999,0.0,5.968969500122643E9,,,0,7,0.0,47,348071370500857,7,41.73191833496094,402.4715152058459,0.040094935522014846,1,6434.7442569127425,7.846003281883895E-4,,,,,0,,1,,
Raw,5547018,18123000000,,,-1191199253693999999,0.0,5.968969500122643E9,,,0,9,0.0,47,348071366932343,7,41.6183967590332,374.68909852390743,0.039955651772079465,1,5996.9546241105245,7.949222926981747E-4,,,,,0,,1,,
Raw,5547018,18123000000,,,-1191199253693999999,0.0,5.968969500122643E9,,,0,16,0.0,47,348071353706149,11,38.38812255859375,682.9519664392487,0.058611865087286164,1,10930.809317231246,0.0010938544292002916,,,,,0,,1,,
Raw,5547019,18123000000,,,-1191199253693999999,0.0,5.968969500122643E9,,,0,23,0.0,47,348071359474041,6,45.805416107177734,629.0776910838163,0.033502911226186524,1,10073.667026318395,4.908781265839934E-4,,,,,0,,1,,
Raw,5547020,18123000000,,,-1191199253693999999,0.0,5.968969500122643E9,,,0,28,0.0,47,348071357981378,14,36.198570251464844,-538.6574451656481,0.07547808792252247,1,-8629.358883230017,0.0014074636856094003,,,,,0,,1,,
Raw,5547020,18123000000,,,-1191199253693999999,0.0,5.968969500122643E9,,,0,30,0.0,47,348071368710857,6,43.83053207397461,-12.730997852785343,0.03157242630355027,1,-216.46029146629982,6.161945057101548E-4,,,,,0,,1,,
Raw,5547021,18123000000,,,-1191199253693999999,0.0,5.968969500122643E9,,,0,6,0.0,47,348057317255760,6,38.15680694580078,177.2046264981676,0.060765670812995526,1,1597.5990436981426,0.0011336826719343662,,,,,0,,5,,
Raw,5547021,18123000000,,,-1191199253693999999,0.0,5.968969500122643E9,,,0,7,0.0,51,16797542,6,37.467567443847656,32.3629049946327,0.06544522288095267,1,226.2929421979822,0.0012273078318685293,,,,,0,,5,,
Raw,5547022,18123000000,,,-1191199253693999999,0.0,5.968969500122643E9,,,0,9,0.0,47,348057315558854,7,35.47488784790039,121.44397238033889,0.08131931838743306,1,972.9054413194709,0.0015437874244526029,,,,,0,,5,,
Raw,5547023,18123000000,,,-1191199253693999999,0.0,5.968969500122643E9,,,0,10,0.0,17,12165943,20,34.093780517578125,-27.93470135798944,4.227057232590573,6,262143.66014805675,3.4028234663852886E38,,,,,0,,5,,
Raw,5547023,18123000000,,,-1191199253693999999,0.0,5.968969500122643E9,,,0,1,0.0,1074,5981721,166,24.97405433654785,747.262698971444,0.29586457954163214,4,2248.9473034078483,3.4028234663852886E38,,,,,1,,6,,
Raw,5547024,18123000000,,,-1191199253693999999,0.0,5.968969500122643E9,,,0,4,0.0,1074,4592489,6,39.38523864746094,575.12298113099,0.05692461707116231,1,4026.9238156368033,9.194488520734012E-4,,,,,0,,6,,
Raw,5547024,18123000000,,,-1191199253693999999,0.0,5.968969500122643E9,,,0,5,0.0,1074,3348411,10,33.71997833251953,-142.34040362886526,0.10830198982765998,1,-285.1316174097662,0.0015286962734535336,,,,,0,,6,,
Raw,5547025,18123000000,,,-1191199253693999999,0.0,5.968969500122643E9,,,0,9,0.0,1074,5877654,6,40.06306838989258,242.67907042587774,0.0529444127139895,1,1940.875153230276,8.504253346472979E-4,,,,,0,,6,,
Nav,2,257,1,-1,2,34,-61,-79,17,28,83,-118,7,0,-128,18,-101,14,4,22,107,7,66,39,112,63,-16,-126,27,48,-24,-68,-92,1,34,-24,112,3,45,-124,72,21,-120,-110,15
Nav,5,257,1,-1,2,34,-61,-79,17,28,83,-118,7,17,125,-91,-11,12,-33,-81,-41,47,-41,1,-76,61,-39,-64,-127,43,43,125,-108,5,84,-88,78,3,36,42,-47,21,-120,-97,24
Nav,6,257,1,-1,2,34,-61,-79,17,28,83,-118,7,1,63,-22,-41,12,-34,-44,40,58,-58,122,-5,63,-7,-128,2,18,68,-51,123,1,90,-24,104,3,-127,81,-82,21,-120,-97,75
Nav,7,257,1,-1,2,34,-61,-79,17,28,83,-118,7,16,-64,4,-86,14,87,11,-107,33,-61,8,57,0,25,1,93,42,-2,119,104,1,101,-88,72,3,109,101,-113,21,-120,-97,-108
Nav,9,257,1,-1,2,34,-61,-79,17,28,83,-118,7,0,-126,87,-36,12,-64,-22,91,29,-81,-123,11,2,26,-128,31,28,12,-58,98,5,125,40,112,3,-118,19,-124,21,-120,-110,15
Nav,16,257,1,-1,2,34,-61,-79,17,28,83,-118,7,13,-67,-99,-81,10,19,-79,103,47,-76,-122,-64,61,-20,-127,3,49,47,-106,96,6,55,40,64,3,-115,17,95,21,-120,-97,-108
Nav,23,257,1,-1,2,34,-61,-79,17,28,83,-118,7,16,-126,93,66,13,36,-38,121,60,-12,-5,73,2,14,-127,-125,4,-6,8,-97,5,-49,-88,69,3,90,-4,-122,21,-120,-97,75
Nav,28,257,1,-1,2,34,-61,-79,17,28,83,-118,7,7,-2,44,-75,10,94,-15,-33,3,-98,-125,-31,62,118,-62,-79,11,-119,63,35,5,-20,40,94,3,83,-112,-108,21,-120,-97,-57
Nav,30,257,1,-1,2,34,-61,-79,17,28,83,-118,7,12,127,-59,97,15,4,-117,102,61,-114,-22,98,63,-40,0,94,35,-31,71,-4,1,43,104,96,3,60,19,-65,21,-120,-97,-108
Raw,5548007,19123000000,,,-1191199253693999999,0.0,5.968969500122643E9,,,0,2,0.0,47,348072359098281,16,35.16028594970703,448.51606190674966,0.08485213641681444,1,7621.552180650018,0.001586176105774939,,,,,0,,1,,
Raw,5548008,19123000000,,,-1191199253693999999,0.0,5.968969500122643E9,,,0,3,0.0,38,348072354116229,1000000000,21.35272789001465,891.9636535390791,2.99792458E8,4,15159.990196638164,3.4028234663852886E38,,,,,1,,1,,
Raw,5548008,19123000000,,,-1191199253693999999,0.0,5.968969500122643E9,,,0,5,0.0,47,348072356319606,28,30.40943717956543,-445.54717320150417,0.14362332201070271,1,-7584.585986075179,0.002584149595350027,,,,,0,,1,,
Raw,5548009,19123000000,,,-1191199253693999999,0.0,5.968969500122643E9,,,0,6,0.0,47,348072359937094,13,37.191810607910156,673.4964705261254,0.06802357403036285,1,11457.688843044903,0.0012553799897432327,,,,,0,,1,,
Raw,5548009,19123000000,,,-1191199253693999999,0.0,5.968969500122643E9,,,0,7,0.0,47,348072370499522,7,41.49901580810547,402.46186987064993,0.04113301092814356,1,6837.1860598097755,8.059234824031591E-4,,,,,0,,1,,
Raw,5548010,19123000000,,,-1191199253693999999,0.0,5.968969500122643E9,,,0,9,0.0,47,348072366931091,8,41.0069580078125,374.6779535606245,0.04277850460666208,1,6371.641126046616,8.528971811756492E-4,,,,,0,,1,,
Raw,5548011,19123000000,,,-1191199253693999999,0.0,5.968969500122643E9,,,0,16,0.0,47,348072353703878,11,38.35850143432617,682.9990683941633,0.05880324190828137,1,11613.78496595324,0.0010975911282002926,,,,,0,,1,,
Raw,5548011,19123000000,,,-1191199253693999999,0.0,5.968969500122643E9,,,0,23,0.0,47,348072359471930,6,45.51232147216797,629.0227501639015,0.03350253054445168,1,10702.708264186937,5.07724704220891E-4,,,,,0,,1,,
Raw,5548012,19123000000,,,-1191199253693999999,0.0,5.968969500122643E9,,,0,28,0.0,47,348072357983195,15,35.58549118041992,-538.7046493679322,0.080761883834851,1,-9168.057418515722,0.0015103971818462014,,,,,0,,1,,
Raw,5548013,19123000000,,,-1191199253693999999,0.0,5.968969500122643E9,,,0,30,0.0,47,348072368710899,6,43.55819320678711,-12.71333355461563,0.03252814756104119,1,-229.19933269961882,6.358210230246186E-4,,,,,0,,1,,
Raw,5548013,19123000000,,,-1191199253693999999,0.0,5.968969500122643E9,,,0,6,0.0,47,348058317255168,6,37.91687774658203,177.17308318465575,0.06238054769493795,1,1774.7622297297696,0.0011654349509626627,,,,,0,,5,,
Raw,5548014,19123000000,,,-1191199253693999999,0.0,5.968969500122643E9,,,0,7,0.0,51,16797436,6,37.15675735473633,32.34797900882924,0.06771939060217044,1,258.6179556570836,0.0012720200465992093,,,,,0,,5,,
Raw,5548015,19123000000,,,-1191199253693999999,0.0,5.968969500122643E9,,,0,9,0.0,47,348058315558448,8,35.34189987182617,121.30425987043776,0.0825307017536343,1,1094.2242884968093,0.0015676061157137156,,,,,0,,5,,
Raw,5548015,19123000000,,,-1191199253693999999,0.0,5.968969500122643E9,,,0,10,0.0,16,12166035,1000000000,32.951942443847656,-27.728602613242472,2.99792458E8,6,-5.805449765466619,3.4028234663852886E38,,,,,0,,5,,
Raw,5548016,19123000000,,,-1191199253693999999,0.0,5.968969500122643E9,,,0,1,0.0,1074,5979209,166,25.027698516845703,748.3127112919988,0.2940490896261114,4,2996.5201882483952,3.4028234663852886E38,,,,,1,,6,,
Raw,5548017,19123000000,,,-1191199253693999999,0.0,5.968969500122643E9,,,0,4,0.0,1074,4590568,6,38.92731475830078,575.1214133379899,0.05996115093199145,1,4602.055239051988,9.692230960354209E-4,,,,,0,,6,,
Raw,5548017,19123000000,,,-1191199253693999999,0.0,5.968969500122643E9,,,0,5,0.0,1074,3348900,11,33.61480712890625,-142.36348597254533,0.10961406455284134,1,-427.48833554098724,0.0015473186504095793,,,,,0,,6,,
Raw,5548018,19123000000,,,-1191199253693999999,0.0,5.968969500122643E9,,,0,9,0.0,1074,5876842,6,39.889766693115234,242.68753991632366,0.05398992285520199,1,2183.5662071272545,8.675632416270673E-4,,,,,0,,6,,
Raw,5549042,20123000000,,,-1191199253693999999,0.0,5.968969500122643E9,,,0,2,0.0,47,348073359096808,16,34.90867614746094,448.57597886531676,0.08724481473056789,1,8070.146223870867,0.0016327959019690752,,,,,0,,1,,
Raw,5549043,20123000000,,,-1191199253693999999,0.0,5.968969500122643E9,,,0,3,0.0,39,348073354113253,166,21.318614959716797,890.3206064750275,4.202538632891093,4,16050.952465102044,3.4028234663852886E38,,,,,1,,1,,
Raw,5549044,20123000000,,,-1191199253693999999,0.0,5.968969500122643E9,,,0,5,0.0,47,348073356321072,24,31.737829208374023,-445.45433258993603,0.12367178812710389,1,-8030.052742203862,0.002217675792053342,,,,,0,,1,,
Raw,5549044,20123000000,,,-1191199253693999999,0.0,5.968969500122643E9,,,0,6,0.0,47,348073359934847,13,37.20659255981445,673.5438451406922,0.06791361317515071,1,12131.256798394412,0.001253245398402214,,,,,0,,1,,
Raw,5549045,20123000000,,,-1191199253693999999,0.0,5.968969500122643E9,,,0,7,0.0,47,348073370498198,7,41.498863220214844,402.543429189109,0.04113345609694824,1,7239.711519586644,8.059375686571002E-4,,,,,0,,1,,
Raw,5549045,20123000000,,,-1191199253693999999,0.0,5.968969500122643E9,,,0,9,0.0,47,348073366929823,7,41.894317626953125,374.7424034859091,0.03874487583247152,1,6746.3609514877535,7.700672722421587E-4,,,,,0,,1,,
Raw,5549046,20123000000,,,-1191199253693999999,0.0,5.968969500122643E9,,,0,16,0.0,47,348073353701610,10,38.720951080322266,683.0549636228607,0.056500300472548004,1,12296.820519900737,0.0010527328122407198,,,,,0,,1,,
Raw,5549046,20123000000,,,-1191199253693999999,0.0,5.968969500122643E9,,,0,23,0.0,47,348073359469847,6,45.80664825439453,629.063785441555,0.033502156103401015,1,11331.76779159278,4.908086266368628E-4,,,,,0,,1,,
Raw,5549047,20123000000,,,-1191199253693999999,0.0,5.968969500122643E9,,,0,28,0.0,47,348073357984975,15,35.72869873046875,-538.7332786314114,0.0794944674456457,1,-9706.764412353481,0.0014856989728286862,,,,,0,,1,,
Raw,5549048,20123000000,,,-1191199253693999999,0.0,5.968969500122643E9,,,0,30,0.0,47,348073368710934,6,43.56308364868164,-12.632421802830478,0.03251071733013271,1,-241.85135194077552,6.354629877023399E-4,,,,,0,,1,,
Raw,5549048,20123000000,,,-1191199253693999999,0.0,5.968969500122643E9,,,0,6,0.0,47,348059317254574,6,38.00271987915039,177.1036913031753,0.06179750553494648,1,1951.9108674194815,0.0011539736296981573,,,,,0,,5,,
Raw,5549049,20123000000,,,-1191199253693999999,0.0,5.968969500122643E9,,,0,7,0.0,51,16797327,6,37.2471809387207,32.36198263815305,0.06704934498382875,1,290.96787168823863,0.001258846721611917,,,,,0,,5,,
Raw,5549049,20123000000,,,-1191199253693999999,0.0,5.968969500122643E9,,,0,9,0.0,47,348059315558058,7,35.46636962890625,121.27118284638237,0.08139622025832755,1,1215.5445320950091,0.0015453019877895713,,,,,0,,5,,
